City ID,City,Cloudiness,Country,Date,Humidity,Latitude,Longitude,Max Temp,Wind Speed
0,Berlare,99,BE,1603168604,88,51.04,3.98,53.01,4.0
1,Verkhoyansk,100,RU,1603168604,90,67.54,133.38,14.92,3.53
2,Longyearbyen,75,SJ,1603168405,68,78.22,15.64,26.6,3.36
3,Nogales,1,MX,1603168473,22,31.31,-110.94,66.0,5.82
4,São Miguel,40,BR,1603168605,88,-5.47,-35.37,73.4,4.7
5,Itarema,28,BR,1603168605,77,-2.92,-39.92,79.36,18.88
6,Progreso,5,MX,1603168605,88,21.28,-89.67,78.8,11.12
7,Yamada,9,JP,1603168606,53,39.47,141.95,61.05,8.39
8,Yellowknife,90,CA,1603168606,85,62.46,-114.35,26.01,1.66
9,Albany,100,US,1603168606,80,42.6,-73.97,57.0,7.45
10,Manicoré,100,BR,1603168606,86,-5.81,-61.3,74.86,2.24
11,Hermanus,39,ZA,1603168378,85,-34.42,19.23,57.99,5.01
12,Kamaishi,20,JP,1603168607,37,39.27,141.88,66.2,2.24
13,Carbonia,20,IT,1603168607,100,39.17,8.52,50.0,4.7
14,Tasiilaq,89,GL,1603168514,92,65.61,-37.64,28.4,3.36
15,Busselton,10,AU,1603168607,31,-33.65,115.33,79.0,8.25
16,Mar del Plata,4,AR,1603168216,57,-38.0,-57.56,53.01,9.17
17,Bambous Virieux,40,MU,1603168453,69,-20.34,57.76,79.0,12.75
18,Butaritari,100,KI,1603168385,77,3.07,172.79,82.45,11.79
19,Ternate,90,ID,1603168387,67,0.8,127.4,84.45,10.27
20,Bathsheba,40,BB,1603168472,83,13.22,-59.52,78.8,1.12
21,Chokurdakh,93,RU,1603168419,97,70.63,147.92,15.4,5.23
22,Constitución,43,CL,1603168385,72,-35.33,-72.42,51.01,10.94
23,Castro,69,BR,1603168379,94,-24.79,-50.01,62.13,8.14
24,Tiksi,100,RU,1603168403,92,71.69,128.87,14.94,22.86
25,Nome,90,US,1603168520,93,64.5,-165.41,37.4,2.53
26,Port Lincoln,84,AU,1603168404,69,-34.73,135.87,61.21,6.98
27,Punta Arenas,56,CL,1603168377,64,-53.15,-70.92,39.2,10.29
28,Gimli,0,CA,1603168609,98,50.63,-96.99,28.99,6.06
29,Isetskoye,52,RU,1603168610,80,56.49,65.32,45.66,6.08
30,Veseloyarsk,94,RU,1603168610,52,51.28,81.11,44.71,15.05
31,Carballo,75,ES,1603168610,87,43.21,-8.69,60.8,4.7
32,Bredasdorp,57,ZA,1603168376,87,-34.53,20.04,55.4,9.17
33,Kaitangata,91,NZ,1603168382,53,-46.28,169.85,54.01,7.63
34,Lompoc,90,US,1603168299,93,34.64,-120.46,57.2,4.7
35,Rikitea,0,PF,1603168369,78,-23.12,-134.97,74.26,13.47
36,Dikson,98,RU,1603168384,94,73.51,80.55,24.57,15.95
37,Vaini,40,TO,1603168375,73,-21.2,-175.2,75.2,10.29
38,Jamestown,90,US,1603168210,100,42.1,-79.24,53.01,3.36
39,Avarua,62,CK,1603168397,78,-21.21,-159.78,78.8,3.36
40,Berdychiv,8,UA,1603168612,95,49.9,28.6,37.9,7.87
41,Aguadilla,98,PR,1603168612,88,18.43,-67.15,77.0,3.96
42,Hobart,40,AU,1603168156,55,-42.88,147.33,69.01,14.99
43,Broome,90,US,1603168371,93,42.25,-75.83,57.0,9.17
44,Grand Gaube,0,MU,1603168436,66,-20.01,57.66,79.0,11.99
45,Yeppoon,43,AU,1603168555,40,-23.13,150.73,87.8,8.05
46,Talnakh,96,RU,1603168433,85,69.49,88.4,14.0,6.71
47,Aljezur,100,PT,1603168613,96,37.32,-8.8,63.0,7.87
48,Paracuru,36,BR,1603168613,75,-3.41,-39.03,80.01,25.01
49,Petit-Bourg,35,GP,1603168614,94,16.19,-61.59,73.4,2.64
50,Ginda,0,IN,1603168614,61,30.69,78.49,77.0,5.57
51,Camacha,75,PT,1603168614,94,33.08,-16.33,68.0,13.87
52,East London,20,ZA,1603168099,77,-33.02,27.91,60.8,18.34
53,Āsosa,61,ET,1603168614,94,10.07,34.53,64.35,4.81
54,Marsá Maţrūḩ,40,EG,1603168615,73,31.35,27.25,69.8,8.01
55,Sioux Lookout,75,CA,1603168350,74,50.1,-91.92,28.4,3.36
56,Rongcheng,55,CN,1603168615,74,30.63,117.85,69.01,6.49
57,New Norfolk,69,AU,1603168381,42,-42.78,147.06,69.01,3.0
58,Beringovskiy,97,RU,1603168438,94,63.05,179.32,39.74,11.74
59,Arraial do Cabo,97,BR,1603168410,83,-22.97,-42.03,72.14,21.41
60,Elko,1,US,1603168615,39,41.0,-115.5,51.01,4.94
61,Borba,95,BR,1603168442,82,-4.39,-59.59,77.38,1.19
62,Trairi,47,BR,1603168617,74,-3.28,-39.27,79.39,15.05
63,Thompson,90,CA,1603168407,73,55.74,-97.86,26.6,5.82
64,Hilo,40,US,1603168372,69,19.73,-155.09,78.8,8.05
65,Elizabeth City,90,US,1603168617,100,36.29,-76.25,66.2,4.7
66,Port Hedland,0,AU,1603168618,55,-20.32,118.57,87.8,14.99
67,Batemans Bay,54,AU,1603168618,70,-35.72,150.18,66.0,7.0
68,Hasaki,75,JP,1603168419,63,35.73,140.83,68.0,14.99
69,Ushuaia,90,AR,1603168257,93,-54.8,-68.3,35.6,24.16
70,Bluff,37,NZ,1603168497,68,-46.6,168.33,52.0,11.99
71,Kochubey,58,RU,1603168618,75,44.39,46.58,57.36,15.1
72,Deputatsky,95,RU,1603168619,95,69.3,139.9,10.83,2.91
73,Laramie,1,US,1603168619,29,41.31,-105.59,52.0,17.22
74,Kapaa,20,US,1603168370,69,22.08,-159.32,80.6,5.82
75,Middleton,100,GB,1603168619,94,53.55,-2.2,53.01,4.0
76,Flinders,68,AU,1603168620,64,-34.58,150.86,70.0,5.01
77,Port Elizabeth,57,ZA,1603168394,67,-33.92,25.57,60.8,24.16
78,Chicama,37,PE,1603168496,82,-7.84,-79.15,62.67,4.23
79,Eilenburg,95,DE,1603168620,91,51.46,12.63,41.0,4.0
80,Ulladulla,40,AU,1603168620,56,-35.35,150.47,68.0,13.87
81,Tuktoyaktuk,90,CA,1603168391,85,69.45,-133.04,21.2,11.41
82,Roebourne,0,AU,1603168621,31,-20.78,117.13,87.19,17.25
83,Bethel,1,US,1603168386,87,41.37,-73.41,53.01,3.69
84,Gizo Government Station,84,SB,1603168621,67,-8.1,156.84,84.88,5.41
85,Bangassou,93,CF,1603168621,94,4.74,22.82,70.34,1.57
86,Sindor,99,RU,1603168621,98,62.86,51.89,30.96,5.97
87,Mataura,88,NZ,1603168375,68,-46.19,168.86,52.0,11.99
88,New Iberia,20,US,1603168382,94,30.0,-91.82,73.4,4.7
89,Vanavara,100,RU,1603168529,92,60.34,102.28,27.01,13.06
90,Dvinskoy Bereznik,94,RU,1603168622,98,62.86,42.71,31.73,4.52
91,Saint-Pierre,0,RE,1603168622,50,-21.34,55.48,78.8,4.7
92,Kilindoni,77,TZ,1603168623,73,-7.91,39.67,78.98,9.66
93,Shimoda,75,JP,1603168426,63,34.67,138.95,66.2,18.34
94,Shīeli,0,KZ,1603168623,26,44.17,66.75,65.21,9.24
95,Kot Samaba,0,PK,1603168623,10,28.55,70.47,95.07,4.23
96,Kahului,20,US,1603168395,54,20.89,-156.47,84.2,4.7
97,Hong Kong,0,HK,1603168254,61,22.29,114.16,80.01,10.0
98,Cape Town,75,ZA,1603168221,93,-33.93,18.42,57.99,4.7
99,George Town,20,MY,1603168449,70,5.41,100.34,87.8,5.82
100,Obo,27,CF,1603168624,91,5.4,26.49,69.89,3.11
101,Khatanga,81,RU,1603168377,96,71.97,102.5,12.94,6.44
102,Port Alfred,15,ZA,1603168411,68,-33.59,26.89,63.5,22.93
103,Simões,86,BR,1603168625,55,-7.6,-40.82,74.53,13.42
104,Palmer,90,US,1603168625,87,42.16,-72.33,53.6,3.36
105,Banjar,75,ID,1603168625,70,-8.19,114.97,84.2,10.29
106,Raudeberg,100,NO,1603168625,64,61.99,5.14,43.0,8.21
107,Qaanaaq,76,GL,1603168396,85,77.48,-69.36,29.75,8.16
108,Ambon City,75,ID,1603168555,70,-3.7,128.18,86.0,8.05
109,Kavieng,98,PG,1603168626,69,-2.57,150.8,83.68,2.77
110,La Sarre,99,CA,1603168626,96,48.8,-79.2,34.21,3.33
111,Vardø,75,NO,1603168399,80,70.37,31.11,35.6,12.75
112,Atuona,1,PF,1603168399,78,-9.8,-139.03,78.33,19.73
113,Clyde River,90,CA,1603168376,91,70.47,-68.59,32.0,18.34
114,Archidona,100,ES,1603168628,86,37.1,-4.39,64.0,7.67
115,Hamilton,90,US,1603168419,100,39.18,-84.53,54.0,1.14
116,Dakar,57,SN,1603168629,100,14.69,-17.44,78.8,8.03
117,Araouane,0,ML,1603168629,15,18.9,-3.53,82.22,8.86
118,Flin Flon,31,CA,1603168629,91,54.77,-101.86,23.02,3.49
119,Portland,40,US,1603168560,67,45.52,-122.68,57.2,5.82
120,Plettenberg Bay,100,ZA,1603168392,67,-34.05,23.37,59.2,13.98
121,Torbay,5,CA,1603168427,87,47.67,-52.73,48.99,11.41
122,Puerto Madero,93,MX,1603168630,77,14.72,-92.42,81.28,3.06
123,Oranjemund,7,NA,1603168448,83,-28.55,16.43,56.37,11.32
124,San Vicente,0,AR,1603168383,61,-26.62,-54.13,66.76,2.62
125,Kyabé,67,TD,1603168631,66,9.45,18.94,73.13,2.95
126,Fare,27,PF,1603168501,77,-16.7,-151.02,79.88,16.69
127,Arawa,58,PG,1603168631,72,-6.21,155.54,84.33,2.59
128,Hithadhoo,92,MV,1603168248,78,-0.6,73.08,82.8,12.48
129,Cabedelo,40,BR,1603168631,88,-6.98,-34.83,73.4,3.36
130,Barrow,90,US,1603168349,79,71.29,-156.79,24.8,12.75
131,Vao,42,NC,1603168507,77,-22.67,167.48,73.17,19.3
132,Shache,0,CN,1603168632,24,38.42,77.24,64.13,2.1
133,Kruisfontein,53,ZA,1603168180,61,-34.0,24.73,61.0,5.01
134,Saskylakh,89,RU,1603168399,97,71.92,114.08,22.86,3.74
135,Novoagansk,93,RU,1603168632,97,61.94,76.66,33.22,7.83
136,Iroquois Falls,90,CA,1603168633,94,48.77,-80.68,32.0,2.24
137,Khovd,34,MN,1603168436,77,48.01,91.64,31.73,2.93
138,Saint George,1,US,1603168341,14,37.1,-113.58,69.8,1.99
139,Vila Velha,75,BR,1603168134,94,-20.33,-40.29,71.01,3.36
140,Laas,5,IT,1603168633,50,46.62,10.7,46.0,1.39
141,Faanui,38,PF,1603168389,77,-16.48,-151.75,79.52,18.63
142,Honningsvåg,75,NO,1603168634,80,70.98,25.97,39.2,18.34
143,Anadyr,40,RU,1603168431,86,64.75,177.48,37.4,13.42
144,Porosozero,94,RU,1603168634,97,62.72,32.73,28.44,9.95
145,Narsaq,98,GL,1603168433,86,60.92,-46.05,33.8,1.12
146,Chipping Sodbury,90,GB,1603168635,92,51.54,-2.39,57.0,5.99
147,Quaraí,0,BR,1603168635,72,-30.39,-56.45,70.32,9.22
148,Hofn,0,IS,1603168438,75,64.25,-15.21,37.47,10.02
149,Sabha,0,LY,1603168635,72,27.04,14.43,62.38,19.08
150,Māngrol,19,IN,1603168635,69,21.12,70.12,86.07,6.78
151,Zharkent,0,KZ,1603168635,19,44.16,80.0,68.81,6.69
152,Fortuna,90,US,1603168134,100,40.6,-124.16,55.99,5.82
153,Evensk,100,RU,1603168465,83,61.95,159.23,37.49,15.3
154,Cairns,13,AU,1603168292,58,-16.92,145.77,86.0,8.05
155,Vostok,0,RU,1603168431,51,46.49,135.88,47.07,3.62
156,Puerto Ayora,88,EC,1603168384,91,-0.74,-90.35,70.0,4.0
157,Geraldton,40,AU,1603168381,50,-28.77,114.6,75.2,11.41
158,Suwałki,91,PL,1603168637,95,54.11,22.93,38.46,7.94
159,Ribeira Grande,49,PT,1603168385,67,38.52,-28.7,63.75,28.43
160,Yatou,60,CN,1603168637,39,37.15,122.38,68.2,11.07
161,Yumen,34,CN,1603168449,25,40.28,97.2,61.7,28.68
162,Abu Kamal,18,SY,1603168637,23,34.45,40.92,74.07,8.43
163,Verkhnetulomskiy,75,RU,1603168638,98,68.61,31.8,32.0,4.47
164,Amga,100,RU,1603168638,96,60.9,131.96,22.06,5.86
165,Roboré,34,BO,1603168638,91,-18.33,-59.75,71.46,4.52
166,Nadvoitsy,92,RU,1603168514,97,63.87,34.32,30.11,13.78
167,Teknāf,72,BD,1603168639,65,20.86,92.31,87.42,9.17
168,Marovoay,20,MG,1603168639,54,-16.1,46.63,80.6,10.29
169,Siemiatycze,9,PL,1603168639,90,52.43,22.86,33.01,7.0
170,Pital,75,CO,1603168639,74,2.27,-75.8,66.29,3.4
171,Kailua,40,US,1603168471,78,21.4,-157.74,80.6,8.05
172,Vila Franca do Campo,40,PT,1603168429,82,37.72,-25.43,59.0,17.22
173,Eau Claire,20,US,1603168635,86,44.81,-91.5,28.0,2.82
174,Château-Gontier,75,FR,1603168640,82,47.83,-0.7,61.0,5.82
175,Katsuura,83,JP,1603168404,54,35.13,140.3,68.0,5.99
176,Terney,0,RU,1603168640,42,45.05,136.61,57.6,5.28
177,Mogadishu,75,SO,1603168640,74,2.04,45.34,80.6,13.87
178,Dawson Creek,1,CA,1603168641,78,55.77,-120.24,15.8,3.24
179,Stromness,100,GB,1603168512,93,58.97,-3.3,50.0,2.24
180,Nanortalik,100,GL,1603168391,89,60.14,-45.24,35.49,4.32
181,Cidreira,1,BR,1603168326,93,-30.18,-50.21,66.45,11.61
182,Druskininkai,64,LT,1603168641,100,54.02,23.97,37.4,6.71
183,Ilulissat,100,GL,1603168432,74,69.22,-51.1,37.4,10.29
184,Faya,0,SA,1603168443,27,18.39,42.45,53.6,6.93
185,Port-Cartier,90,CA,1603168459,100,50.03,-66.87,41.0,4.7
186,Ketchikan,1,US,1603168642,100,55.34,-131.65,42.8,5.82
187,Melville,1,US,1603168480,87,40.79,-73.42,59.0,3.36
188,Mackay,0,AU,1603168606,61,-21.15,149.2,84.99,17.22
189,Mala,21,PE,1603168643,81,-12.66,-76.63,62.58,5.23
190,Aksarka,6,RU,1603168643,95,66.56,67.8,14.86,4.99
191,Pozo Colorado,19,PY,1603168643,56,-23.49,-58.8,78.69,4.85
192,Karpathos,20,GR,1603168643,77,35.51,27.21,66.2,6.93
193,Sexsmith,20,CA,1603168644,92,55.35,-118.79,15.8,2.24
194,Jiangyou,83,CN,1603168644,57,31.77,104.72,67.62,5.28
195,Tsukuba,75,JP,1603168644,55,36.2,140.1,69.01,13.87
196,Hegang,19,CN,1603168645,52,47.4,130.37,50.99,6.55
197,Barranca,18,PE,1603168371,93,-10.75,-77.77,59.63,5.37
198,São Filipe,19,CV,1603168425,71,14.9,-24.5,81.32,5.86
199,Asifābād,100,IN,1603168645,72,19.37,79.28,83.28,7.81
200,Viranşehir,0,TR,1603168645,38,37.24,39.76,70.34,0.78
201,Nichinan,20,JP,1603168646,56,31.6,131.37,71.6,14.99
202,Ishigaki,75,JP,1603168646,74,24.34,124.16,86.0,24.16
203,Paso de Carrasco,75,UY,1603168646,93,-34.86,-56.05,53.6,17.22
204,Haines Junction,100,CA,1603168120,82,60.75,-137.51,28.15,2.06
205,Padang,66,ID,1603168473,54,-0.95,100.35,88.68,7.76
206,Valencia,40,ES,1603168647,93,39.33,-0.83,60.8,1.12
207,Manono,85,CD,1603168647,79,-7.3,27.42,73.0,0.76
208,Airai,0,TL,1603168377,36,-8.93,125.41,81.41,5.64
209,Ciudad Guayana,0,VE,1603168647,82,8.35,-62.65,80.01,3.69
210,Gudāri,83,IN,1603168648,71,19.35,83.78,86.52,2.77
211,Saint-Augustin,97,CA,1603168518,80,51.23,-58.65,44.13,3.8
212,Khani,90,GE,1603168648,93,41.96,42.96,60.8,2.24
213,Kalanguy,100,RU,1603168649,67,51.02,116.52,41.27,8.08
214,Panlaitan,100,PH,1603168649,73,12.12,119.85,83.73,1.81
215,Saint Anthony,75,US,1603168384,86,45.02,-93.22,32.0,3.94
216,Bilibino,82,RU,1603168649,93,68.05,166.44,16.03,2.95
217,Lorengau,100,PG,1603168425,68,-2.02,147.27,84.09,4.32
218,Mora,2,CM,1603168650,35,11.05,14.14,73.4,1.59
219,Forbes,0,AU,1603168650,23,-33.38,148.02,81.0,1.99
220,La Ronge,90,CA,1603168462,58,55.1,-105.28,24.8,6.93
221,Ponta do Sol,75,PT,1603168381,83,32.67,-17.1,71.6,28.86
222,Kurchum,0,KZ,1603168474,44,48.57,83.65,45.79,5.41
223,Zhigansk,100,RU,1603168457,96,66.77,123.37,19.71,13.85
224,Biak,100,ID,1603168477,68,-0.91,122.88,83.88,8.84
225,Avera,1,US,1603168652,100,33.19,-82.53,62.6,4.7
226,Micheweni,25,TZ,1603168652,70,-4.97,39.83,79.86,8.77
227,Port Macquarie,29,AU,1603168652,66,-31.43,152.92,70.0,8.99
228,Kannad,20,IN,1603168653,74,20.27,75.13,84.2,5.46
229,Upernavik,100,GL,1603168409,88,72.79,-56.15,33.78,10.2
230,Saldanha,47,ZA,1603168390,81,-33.01,17.94,51.8,1.12
231,Cherskiy,77,RU,1603168408,94,68.75,161.3,22.05,1.68
232,Saint-Philippe,35,RE,1603168393,50,-21.36,55.77,78.8,4.7
233,Nānākuli,90,US,1603168653,88,21.39,-158.15,82.0,9.17
234,Velikiy Ustyug,100,RU,1603168654,91,60.76,46.31,34.3,4.94
235,Lavrentiya,1,RU,1603168429,81,65.58,-171.0,33.64,4.88
236,Pyshchug,96,RU,1603168654,96,58.89,45.71,33.21,6.35
237,Mahébourg,40,MU,1603168380,69,-20.41,57.7,77.0,12.75
238,Salalah,3,OM,1603168447,51,17.02,54.09,82.4,2.24
239,Poddor'ye,100,RU,1603168655,89,57.47,31.12,36.16,11.48
240,Mareeba,15,AU,1603168655,58,-17.0,145.43,91.99,8.05
241,Berlevåg,40,NO,1603168655,80,70.86,29.09,35.6,11.41
242,Cabo San Lucas,5,MX,1603168446,74,22.89,-109.91,82.0,4.7
243,Surab,0,PK,1603168656,19,28.49,66.26,64.33,9.1
244,Nouadhibou,43,MR,1603168656,53,20.93,-17.03,77.0,12.75
245,New Albany,90,US,1603168656,93,38.29,-85.82,64.0,6.93
246,Lhokseumawe,79,ID,1603168430,63,5.18,97.15,87.17,6.67
247,Leshukonskoye,99,RU,1603168385,99,64.9,45.76,28.4,2.91
248,Sept-Îles,90,CA,1603168510,100,50.2,-66.38,41.0,4.7
249,Souillac,40,MU,1603168386,69,-20.52,57.52,77.0,12.75
250,Bandarbeyla,10,SO,1603168441,47,9.49,50.81,82.74,6.17
251,Ranong,75,TH,1603168657,94,9.97,98.63,77.0,4.7
252,Los Llanos de Aridane,87,ES,1603168393,88,28.66,-17.92,75.2,19.46
253,Gīdolē,44,ET,1603168658,86,5.65,37.37,61.41,2.26
254,Carutapera,54,BR,1603168658,81,-1.2,-46.02,78.84,8.46
255,Sørland,20,NO,1603168378,74,67.67,12.69,33.8,3.36
256,Lebu,1,CL,1603168414,78,-37.62,-73.65,47.14,14.7
257,Dahuk,7,IQ,1603168658,23,36.87,42.99,69.94,2.68
258,Severo-Kuril'sk,83,RU,1603168374,67,50.68,156.12,41.29,18.43
259,Quatre Cocos,40,MU,1603168649,69,-20.21,57.76,79.0,12.75
260,Ostrovnoy,100,RU,1603168460,82,68.05,39.51,35.65,11.83
261,Iqaluit,90,CA,1603168369,79,63.75,-68.51,26.6,9.17
262,Zhuhai,20,CN,1603168659,65,22.28,113.57,78.8,16.11
263,Gol,100,NO,1603168660,94,60.7,8.95,34.0,7.0
264,Lata,100,PT,1603168468,96,40.16,-8.33,63.0,1.99
265,Vangaindrano,36,MG,1603168660,79,-23.35,47.6,74.32,7.56
266,Yavatmal,12,IN,1603168391,71,20.4,78.13,82.6,5.17
267,Ancud,82,CL,1603168661,93,-41.87,-73.82,43.0,5.82
268,Puyang,29,CN,1603168661,63,29.46,119.89,68.54,6.93
269,Carnarvon,64,AU,1603168392,64,-24.87,113.63,73.4,16.11
270,Leningradskiy,22,RU,1603168369,90,69.38,178.42,25.66,7.07
271,Mayumba,100,GA,1603168662,87,-3.43,10.66,76.95,3.71
272,Litovko,5,RU,1603168662,56,49.24,135.17,45.45,10.67
273,Olinda,40,BR,1603168662,74,-8.01,-34.86,78.8,9.17
274,Nikolskoye,90,RU,1603168428,74,59.7,30.79,35.6,13.42
275,Shyryayeve,20,UA,1603168663,73,47.38,30.2,43.9,4.74
276,Sobolevo,56,RU,1603168663,89,54.43,31.9,35.98,13.24
277,Xaçmaz,0,AZ,1603168663,64,41.46,48.81,65.8,19.06
278,Souris,40,CA,1603168663,62,49.62,-100.26,21.2,3.36
279,Nizhniy Kuranakh,100,RU,1603168664,96,58.84,125.49,29.07,3.09
280,Christchurch,49,NZ,1603168664,62,-43.53,172.63,55.4,21.92
281,Walvis Bay,90,NA,1603168664,87,-22.96,14.51,57.0,5.82
282,Mehamn,40,NO,1603168456,80,71.04,27.85,35.6,11.41
283,Mahabalipuram,90,IN,1603168665,94,12.63,80.17,80.6,7.36
284,Lal'sk,100,RU,1603168665,94,60.74,47.59,33.21,5.86
285,Tuatapere,68,NZ,1603168375,68,-46.13,167.68,52.0,11.99
286,Rabo de Peixe,20,PT,1603168665,72,37.8,-25.58,60.8,16.11
287,Dubbo,71,AU,1603168665,31,-32.25,148.62,78.8,5.82
288,Maryville,1,US,1603168610,93,35.76,-83.97,61.0,1.72
289,Arman',23,RU,1603168666,89,59.7,150.17,31.41,4.92
290,Lichinga,0,MZ,1603168666,57,-13.31,35.24,67.28,7.87
291,São Félix do Xingu,73,BR,1603168667,73,-6.64,-51.99,73.85,0.67
292,Westonaria,11,ZA,1603168667,67,-26.32,27.65,66.2,1.12
293,Alofi,8,NU,1603168667,73,-19.06,-169.92,77.0,16.11
294,Ust-Maya,86,RU,1603168667,89,60.42,134.53,22.89,5.39
295,Novyy Nekouz,93,RU,1603168667,91,57.9,38.07,33.78,10.85
296,Phalaborwa,0,ZA,1603168668,73,-23.94,31.14,71.6,3.36
297,San Patricio,40,US,1603168392,88,28.02,-97.52,79.0,11.41
298,Whyalla,97,AU,1603168668,31,-33.03,137.58,77.0,12.75
299,Birao,78,CF,1603168668,67,10.28,22.79,74.25,2.37
300,Natchez,1,US,1603168669,88,31.56,-91.4,69.8,3.36
301,Yerbogachën,100,RU,1603168644,95,61.28,108.01,26.13,11.16
302,Mossamedes,18,AO,1603168399,84,-15.2,12.15,66.58,2.15
303,Boueni,41,YT,1603168669,78,-12.9,45.08,78.8,3.36
304,Umluj,0,SA,1603168636,29,25.02,37.27,87.8,5.99
305,Nemuro,20,JP,1603168389,51,43.32,145.57,59.0,6.93
306,Mayo,1,US,1603168421,100,38.89,-76.51,60.8,6.69
307,Genhe,100,CN,1603168670,54,50.78,121.52,47.32,6.82
308,Coquimbo,0,CL,1603168519,71,-29.95,-71.34,57.2,12.75
309,Ko Samui,20,TH,1603168671,70,9.54,99.94,89.6,5.82
310,Carthage,40,TN,1603168671,93,36.86,10.33,55.4,9.66
311,Kantilo,20,IN,1603168671,89,20.35,85.18,84.2,5.82
312,Aksu,0,CN,1603168422,27,41.12,80.26,63.34,1.9
313,Nhulunbuy,20,AU,1603168500,49,-12.23,136.77,89.6,11.41
314,San Cristobal,96,VE,1603168434,84,7.77,-72.22,66.36,1.5
315,Novo Aripuanã,100,BR,1603168641,81,-5.12,-60.38,76.64,1.68
316,Kiama,58,AU,1603168210,69,-34.68,150.87,70.0,7.0
317,Río Gallegos,45,AR,1603168249,64,-51.62,-69.22,39.2,23.04
318,Sassandra,56,CI,1603168672,87,4.95,-6.08,75.63,5.28
319,Beaupré,100,CA,1603168673,94,47.04,-70.9,48.99,3.04
320,Longaví,76,CL,1603168673,73,-35.97,-71.68,46.85,6.6
321,Alice Springs,20,AU,1603168415,27,-23.7,133.88,91.4,11.41
322,Waipawa,95,NZ,1603168499,67,-41.41,175.52,59.0,18.34
323,Esperance,90,AU,1603168395,83,-33.87,121.9,69.8,11.41
324,Kismayo,13,SO,1603168674,75,-0.36,42.55,81.14,14.16
325,Saint Paul Harbor,1,US,1603168377,56,57.79,-152.41,44.6,8.05
326,Bantou,71,CN,1603168674,61,26.22,117.49,73.63,5.06
327,Payo,100,ID,1603168675,68,-3.75,103.64,83.97,0.51
328,Half Moon Bay,1,US,1603168360,72,37.46,-122.43,64.0,5.35
329,Alghero,13,IT,1603168521,93,40.56,8.32,50.0,3.36
330,Baykit,93,RU,1603168505,92,61.67,96.37,27.7,5.66
331,Hualmay,6,PE,1603168469,88,-11.1,-77.61,61.0,7.7
332,Havelock,49,US,1603168527,95,34.88,-76.9,66.0,3.94
333,Ndola,0,ZM,1603168676,36,-12.96,28.64,67.44,6.26
334,Hambantota,40,LK,1603168676,62,6.12,81.12,89.6,17.22
335,Pevek,23,RU,1603168320,93,69.7,170.31,26.78,13.15
336,Chui,9,UY,1603168383,91,-33.7,-53.46,62.37,15.35
337,Rio Branco,50,BR,1603168677,94,-9.97,-67.81,75.2,2.24
338,Vanimo,49,PG,1603168391,64,-2.67,141.3,85.69,5.82
339,Dehlorān,0,IR,1603168677,13,32.69,47.27,82.87,2.84
340,Miraflores,20,MX,1603168456,55,19.22,-98.81,64.0,11.41
341,Mount Gambier,75,AU,1603168445,59,-37.83,140.77,60.8,8.05
342,Kalengwa,0,ZM,1603168678,32,-13.47,25.0,65.91,4.18
343,Kuching,40,MY,1603168678,70,1.55,110.33,89.6,3.36
344,Saktī,1,IN,1603168679,55,22.03,82.97,85.84,3.02
345,Port Moresby,36,PG,1603168654,81,-9.44,147.18,81.91,10.98
346,Knyaze-Volkonskoye,0,RU,1603168679,33,48.46,135.46,44.6,13.42
347,Zapolyarnyy,75,RU,1603168465,98,69.42,30.81,35.6,18.34
348,Lusambo,68,CD,1603168679,94,-4.97,23.45,71.78,1.3
349,Kavaratti,20,IN,1603168444,78,10.57,72.64,82.4,5.82
350,Matara,100,LK,1603168680,66,5.95,80.54,85.32,13.94
351,Yarim,0,YE,1603168680,40,14.3,44.38,53.53,8.39
352,Giovinazzo,43,IT,1603168680,93,41.19,16.67,51.01,5.82
353,Puerto Carreño,49,CO,1603168681,89,6.19,-67.49,77.05,3.33
354,Panguna,67,PG,1603168681,89,-6.32,155.48,76.59,0.98
355,Soyo,85,AO,1603168641,84,-6.13,12.37,76.69,7.23
356,Huarmey,1,PE,1603168390,87,-10.07,-78.15,61.68,6.85
357,Moose Factory,75,CA,1603168474,92,51.26,-80.61,26.6,5.82
358,Badarganj,29,BD,1603168682,58,25.67,89.05,87.44,5.3
359,Labuhan,29,ID,1603168449,63,-6.88,112.21,87.49,13.2
360,Polunochnoye,71,RU,1603168682,89,60.87,60.42,34.41,4.27
361,Quelimane,6,MZ,1603168682,73,-17.88,36.89,77.99,5.46
362,Yanam,75,IN,1603168683,83,16.73,82.22,80.6,5.82
363,Santa Cruz de la Sierra,75,BO,1603168683,83,-17.8,-63.17,77.0,13.87
364,Isangel,75,VU,1603168445,69,-19.55,169.27,78.8,11.41
365,Dzaoudzi,10,YT,1603168683,78,-12.79,45.27,78.8,3.36
366,Khasan,0,RU,1603168517,50,42.43,130.64,60.49,8.32
367,Beipiao,59,CN,1603168516,22,41.79,120.78,71.37,18.9
368,Sisimiut,100,GL,1603168684,75,66.94,-53.67,38.35,17.0
369,Srednekolymsk,98,RU,1603168442,96,67.45,153.68,19.18,3.09
370,Morondava,0,MG,1603168532,50,-20.28,44.28,79.7,4.41
371,Marsh Harbour,100,BS,1603168640,76,26.54,-77.06,81.16,21.03
372,Castelo,100,BR,1603168685,89,-20.6,-41.18,65.21,1.59
373,Aktau,40,KZ,1603168498,100,43.65,51.2,59.0,4.47
374,Skjervøy,100,NO,1603168685,85,70.03,20.97,24.8,2.24
375,Beloha,0,MG,1603168471,31,-25.17,45.05,80.2,4.59
376,Turtas,67,RU,1603168686,95,58.94,69.13,36.9,6.24
377,Tucuruí,76,BR,1603168686,89,-3.77,-49.67,74.44,4.65
378,Ritchie,0,ZA,1603168686,32,-29.04,24.6,55.4,6.93
379,Ndago,99,TZ,1603168686,57,-4.6,34.35,70.45,8.16
380,Philadelphia,75,US,1603168184,87,39.95,-75.16,59.0,3.36
381,Lagoa,9,PT,1603168452,68,39.05,-27.98,63.01,30.47
382,Fairbanks,90,US,1603168233,85,64.84,-147.72,21.99,1.92
383,Oodweyne,0,SO,1603168687,24,9.41,45.06,76.82,1.07
384,Kudahuvadhoo,81,MV,1603168435,77,2.67,72.89,82.51,12.12
385,Waiouru,100,NZ,1603168687,99,-39.48,175.67,48.2,1.61
386,Shingū,40,JP,1603168688,40,33.73,135.98,73.4,5.82
387,Gimbi,0,ET,1603168688,100,9.17,35.83,59.59,1.59
388,Lüderitz,0,NA,1603168409,64,-26.65,15.16,58.01,23.51
389,Kashgar,0,CN,1603168688,19,39.45,75.98,60.8,6.71
390,Alyangula,0,AU,1603168410,36,-13.85,136.42,95.0,11.41
391,Ust'-Kut,100,RU,1603168689,89,56.79,105.77,28.99,10.36
392,Acarí,52,PE,1603168689,68,-15.43,-74.62,61.86,2.93
393,Mnogovershinnyy,4,RU,1603168689,84,53.94,139.92,32.58,17.4
394,Poopó,12,BO,1603168689,52,-18.37,-66.97,49.64,3.47
395,Ust-Nera,16,RU,1603168329,84,64.57,143.2,9.79,4.97
396,Kibre Mengist,16,ET,1603168690,89,5.88,38.98,61.66,3.13
397,Acapulco de Juárez,22,MX,1603168414,79,16.86,-99.89,80.51,5.19
398,Buriti Alegre,100,BR,1603168690,91,-18.14,-49.04,67.5,6.42
399,Tsabong,15,BW,1603168691,25,-26.02,22.4,67.23,17.74
400,Aykhal,90,RU,1603168391,92,66.0,111.5,17.6,2.24
401,Cayenne,53,GF,1603168380,88,4.93,-52.33,78.8,2.24
402,Smithers,20,CA,1603168437,92,54.78,-127.17,30.2,2.24
403,Malanje,85,AO,1603168691,92,-9.54,16.34,66.47,6.02
404,Imeni Babushkina,98,RU,1603168692,96,59.76,43.13,33.21,2.73
405,Clarence Town,20,AU,1603168692,56,-32.58,151.78,73.0,17.22
406,Kamina,7,CD,1603168692,85,-8.74,24.99,67.68,1.1
407,São João da Barra,100,BR,1603168388,85,-21.64,-41.05,71.94,11.14
408,Manakara,11,MG,1603168405,68,-22.13,48.02,75.87,5.95
409,Poum,6,NC,1603168526,66,-20.23,164.02,76.48,9.51
410,Okhotsk,5,RU,1603168693,77,59.38,143.3,28.06,20.76
411,Shestakovo,100,RU,1603168693,88,56.49,103.96,29.44,9.22
412,Kuandian,17,CN,1603168693,57,40.73,124.78,63.7,12.15
413,Pendleton,1,US,1603168693,62,45.67,-118.79,57.99,20.8
414,Malartic,90,CA,1603168694,90,48.13,-78.13,32.0,3.89
415,Mgandu,82,TZ,1603168694,67,-5.95,34.13,66.83,9.8
416,Carbonear,5,CA,1603168694,87,47.73,-53.21,48.99,11.41
417,Chapais,75,CA,1603168695,100,49.78,-74.85,26.6,2.24
418,Bengkulu,100,ID,1603168416,62,-3.8,102.27,85.73,5.19
419,Meulaboh,5,ID,1603168444,56,4.14,96.13,87.98,4.68
420,Dingle,100,PH,1603168416,86,11.0,122.67,80.56,5.73
421,Marfino,75,RU,1603168695,81,55.7,37.38,37.99,15.66
422,Mineros,75,BO,1603168696,83,-17.12,-63.23,77.0,13.87
423,Nelidovo,93,RU,1603168696,91,56.22,32.78,36.1,14.45
424,Ramnagar,0,IN,1603168696,73,29.4,79.12,75.2,3.83
425,Bermejo,0,AR,1603168696,30,-32.88,-68.8,64.4,5.82
426,Luquillo,1,PR,1603168696,88,18.37,-65.72,80.6,3.36
427,Baoro,75,CF,1603168697,86,5.67,15.97,66.24,1.32
428,Bambanglipuro,72,ID,1603168697,64,-7.95,110.28,86.05,12.01
429,Rize,83,TR,1603168697,98,40.9,40.89,44.24,0.63
430,Władysławowo,75,PL,1603168697,93,54.79,18.4,45.0,4.7
431,Mineiros,91,BR,1603168635,85,-17.57,-52.55,69.57,2.86
432,Kawalu,86,ID,1603168698,61,-7.38,108.21,86.59,4.47
433,Araceli,100,PH,1603168698,86,10.55,119.99,79.81,10.13
434,San Jerónimo,33,PE,1603168698,64,-11.95,-75.28,51.51,1.03
435,Andenes,0,NO,1603168698,79,69.31,16.12,26.6,8.05
436,Saint-Louis,32,SN,1603168698,54,16.33,-15.0,84.2,9.66
437,Koshurnikovo,100,RU,1603168699,95,54.17,93.3,30.56,6.85
438,Salekhard,18,RU,1603168699,95,66.53,66.6,14.16,4.85
439,Zhangaözen,15,KZ,1603168699,86,43.3,52.8,58.41,12.28
440,Tūkrah,21,LY,1603168699,77,32.53,20.58,66.67,2.8
441,Beyneu,15,KZ,1603168699,46,45.32,55.2,59.2,9.15
442,Krasnosel'kup,100,RU,1603168414,98,65.7,82.47,24.17,10.74
443,Gaza,3,PS,1603168700,88,31.5,34.47,71.01,2.24
444,Provideniya,40,RU,1603168451,80,64.38,-173.3,39.2,2.24
445,Båtsfjord,75,NO,1603168700,80,70.63,29.72,35.6,12.75
446,Port Hardy,20,CA,1603168433,93,50.7,-127.42,44.6,5.82
447,Windhoek,0,NA,1603168700,12,-22.56,17.08,70.0,8.05
448,Tiarei,20,PF,1603168701,61,-17.53,-149.33,82.4,13.87
449,Bang Saphan,75,TH,1603168701,79,11.21,99.51,86.0,6.93
450,Tarakan,100,ID,1603168701,81,3.3,117.63,80.58,7.52
451,Muli,74,MV,1603168701,78,2.92,73.57,82.22,12.44
452,Guipavas,90,FR,1603168702,93,48.44,-4.4,57.2,23.04
453,El Copey,100,CO,1603168702,90,10.15,-73.96,74.16,2.51
454,Olafsvik,65,IS,1603168373,75,64.89,-23.71,38.77,11.12
455,Natal,40,BR,1603168702,88,-5.79,-35.21,73.4,4.7
456,Seymchan,100,RU,1603168702,95,62.88,152.43,22.44,7.23
457,Henties Bay,4,NA,1603168424,90,-22.12,14.28,57.0,3.0
458,Yulara,38,AU,1603168426,35,-25.24,130.99,89.6,10.29
459,Kumul,0,CN,1603168395,31,42.8,93.45,59.32,0.58
460,Laguna,1,US,1603168461,56,38.42,-121.42,71.01,2.75
461,Alugan,71,PH,1603168703,77,12.22,125.48,85.12,11.9
462,Banganapalle,100,IN,1603168704,74,15.32,78.23,82.58,6.13
463,Luanda,75,AO,1603168704,83,-8.84,13.23,75.2,4.7
464,Najrān,0,SA,1603168704,28,17.49,44.13,59.0,4.7
465,Vaasa,100,FI,1603168704,85,63.1,21.62,35.01,3.36
466,Tara,83,RU,1603168705,84,56.89,74.37,44.67,5.03
467,Mopipi,0,BW,1603168705,16,-21.18,24.88,80.85,13.56
468,Dahra,5,DZ,1603168705,32,36.25,0.85,66.2,11.41
469,Copperas Cove,75,US,1603168705,72,31.12,-97.9,68.0,5.82
470,Hurghada,0,EG,1603168675,49,27.26,33.81,73.4,5.82
471,Grand-Lahou,67,CI,1603168706,88,5.14,-5.02,76.46,6.8
472,Morgantown,90,US,1603168513,87,39.63,-79.96,57.2,3.87
473,Opuwo,0,NA,1603168706,29,-18.06,13.84,64.06,2.8
474,Te Anau,5,NZ,1603168510,55,-45.42,167.72,52.88,6.04
475,Oddur,4,SO,1603168707,76,4.12,43.89,74.84,6.93
476,Ciudad General Terán,0,MX,1603168707,85,25.27,-99.68,74.01,11.05
477,Cloquet,90,US,1603168707,86,46.72,-92.46,30.2,1.57
478,Sterling,40,US,1603168707,87,39.01,-77.43,59.0,4.7
479,Shelburne,90,CA,1603168429,93,44.08,-80.2,41.0,2.24
480,Kysyl-Syr,99,RU,1603168707,95,63.9,122.76,25.38,7.61
481,Aboisso,46,CI,1603168708,94,5.47,-3.21,74.21,2.42
482,Bonnyville,90,CA,1603168708,92,54.27,-110.73,21.2,4.7
483,Aklavik,90,CA,1603168440,92,68.22,-135.01,23.0,5.82
484,Rāmgarh,20,IN,1603168708,73,23.63,85.52,77.0,3.38
485,Fasa,0,IR,1603168708,18,28.94,53.65,50.0,5.01
486,Sūsangerd,0,IR,1603168709,55,31.56,48.18,60.8,4.36
487,Fastiv,0,UA,1603168709,100,50.08,29.92,37.99,6.71
488,High Prairie,88,CA,1603168709,97,55.43,-116.49,19.56,5.3
489,Provincia di Cagliari,20,IT,1603168709,100,39.24,9.09,50.0,4.7
490,Bannu,0,PK,1603168710,12,32.99,70.6,84.6,2.24
491,Leeton,0,AU,1603168710,29,-34.57,146.4,78.01,5.82
492,Korla,0,CN,1603168398,28,41.76,86.15,62.29,7.45
493,Ayan,0,RU,1603168327,70,56.45,138.17,34.84,11.72
494,Nevşehir,75,TR,1603168710,87,38.92,34.67,50.0,3.36
495,Istok,20,XK,1603168711,86,42.78,20.49,35.01,1.61
496,Nizhniy Tsasuchey,98,RU,1603168656,66,50.52,115.13,40.96,18.1
497,Tiznit Province,100,MA,1603168684,25,29.58,-9.5,70.59,11.61
498,Mahon,20,ES,1603168476,82,39.89,4.27,60.8,6.93
499,Naze,75,JP,1603168667,78,28.37,129.48,80.6,24.16
500,Kenai,20,US,1603168712,80,60.55,-151.26,34.0,3.36
501,Kununurra,35,AU,1603168712,31,-15.77,128.73,100.4,10.29
502,Bemmel,90,NL,1603168712,81,51.89,5.9,46.99,11.41
503,Klaksvík,26,FO,1603168387,69,62.23,-6.59,37.4,5.82
504,Jiayuguan City,0,CN,1603168712,25,39.82,98.3,60.37,21.03
505,Nabīnagar,40,BD,1603168712,70,23.89,90.97,89.6,6.31
506,Bonavista,22,CA,1603168394,86,48.65,-53.11,48.99,1.01
507,Pāli,0,IN,1603168713,48,25.77,73.33,89.49,2.59
508,Kenora,75,CA,1603168428,54,49.82,-94.43,28.4,5.82
509,Port Hawkesbury,90,CA,1603168396,93,45.62,-61.35,57.2,9.17
510,Saint-Joseph,16,RE,1603168713,50,-21.37,55.62,78.8,4.7
511,Thinadhoo,95,MV,1603168425,77,0.53,72.93,82.98,12.37
512,Talaya,99,RU,1603168714,92,61.38,152.75,18.54,4.03
513,Nyurba,94,RU,1603168437,91,63.28,118.33,28.65,7.67
514,São José da Coroa Grande,23,BR,1603168714,78,-8.9,-35.15,74.68,9.17
515,Springfield,90,US,1603168714,100,37.22,-93.3,45.0,5.82
516,Basco,66,PH,1603168715,76,20.45,121.97,83.05,34.92
517,Antalya Province,75,TR,1603168715,88,36.77,30.72,66.2,4.7
518,Amod,20,IN,1603168715,79,21.98,72.9,86.0,2.86
519,Meadow Lake,1,US,1603168715,17,34.8,-106.54,64.4,3.36
520,Nantai,5,CN,1603168715,29,40.92,122.8,71.8,17.25
521,Norman Wells,40,CA,1603168473,85,65.28,-126.83,14.0,8.05
522,Sheltozero,100,RU,1603168716,84,61.37,35.37,36.1,12.35
523,Itacarambi,89,BR,1603168716,78,-15.1,-44.09,72.16,4.34
524,Bonaventure,90,CA,1603168716,81,48.05,-65.49,46.4,4.7
525,Bac Lieu,92,VN,1603168674,73,9.29,105.72,84.97,6.91
526,Sivaki,95,RU,1603168717,69,52.63,126.75,41.02,12.26
527,Batetskiy,94,RU,1603168717,91,58.65,30.3,34.0,9.06
528,Hat Yai,40,TH,1603168443,62,7.01,100.48,89.6,4.7
529,Sühbaatar,89,MN,1603168717,70,50.23,106.21,34.41,12.55
530,At-Bashi,0,KG,1603168717,35,41.17,75.81,50.99,4.79
531,Dauphin,20,CA,1603168717,73,51.15,-100.05,26.6,5.82
532,Sawtell,90,AU,1603168718,60,-30.38,153.1,69.8,10.29
533,Iquique,90,CL,1603168718,72,-20.22,-70.14,62.6,3.22
534,Kalmunai,28,LK,1603168393,50,7.42,81.82,88.56,4.45
535,Bubaque,56,GW,1603168390,86,11.28,-15.83,82.35,7.2
536,Qui Nhon,97,VN,1603168718,83,13.77,109.23,81.97,9.22
537,Shakawe,0,BW,1603168719,21,-18.37,21.85,71.47,5.61
538,Presidencia Roque Sáenz Peña,0,AR,1603168698,50,-26.79,-60.44,79.93,7.18
539,San Jose,1,US,1603168201,72,37.34,-121.89,66.99,3.36
540,Morehead,90,US,1603168719,96,37.27,-87.18,66.0,3.94
541,Lakselv,75,NO,1603168719,100,70.05,24.97,33.8,6.93
542,Port Shepstone,72,ZA,1603168719,79,-30.74,30.45,68.52,21.25
543,Tandaltī,8,SD,1603168720,47,13.02,31.87,84.36,7.36
544,Sur,8,OM,1603168720,40,22.57,59.53,84.81,13.89
545,Zhangjiakou,90,CN,1603168720,29,40.81,114.88,61.11,7.18
546,Pangody,86,RU,1603168341,98,65.85,74.49,26.24,4.29
547,Adrar,0,MR,1603168428,23,20.5,-10.07,79.7,9.91
548,Kirovskiy,0,RU,1603168721,41,45.09,133.51,58.41,4.72
549,Lidköping,100,SE,1603168721,93,58.51,13.16,39.2,11.41
550,Krutinka,38,RU,1603168721,78,56.01,71.51,46.65,6.06
551,Hetauda,20,NP,1603168690,73,27.43,85.03,75.2,2.24
552,Conselheiro Pena,100,BR,1603168721,86,-19.17,-41.47,70.48,1.95
553,Hirara,75,JP,1603168722,74,24.8,125.28,84.2,19.46
554,Prince Rupert,75,CA,1603168722,70,54.32,-130.32,48.2,6.93
555,Juneau,90,US,1603168722,86,58.3,-134.42,37.99,13.87
556,Saint-Alexandre,90,FR,1603168722,67,44.23,4.62,59.0,3.36
557,Øksfjord,75,NO,1603168723,92,70.24,22.35,33.8,4.7
558,Bozhou,100,CN,1603168723,33,33.88,115.77,69.4,4.41
559,Priladozhskiy,95,RU,1603168723,99,59.85,31.48,33.01,12.82
560,Husavik,84,IS,1603168405,86,66.04,-17.34,28.4,4.43
561,Yangi Marg`ilon,0,UZ,1603168382,22,40.43,71.72,64.4,2.24
562,Malko Tarnovo,75,BG,1603168724,71,41.98,27.53,53.01,8.05
563,Netivot,3,IL,1603168724,81,31.42,34.59,71.01,4.05
564,Atlantic City,90,US,1603168724,93,39.36,-74.42,64.0,4.7
565,Kapit,78,MY,1603168724,43,2.02,112.93,94.82,2.64
566,Nalgonda,98,IN,1603168724,80,17.05,79.27,80.42,4.79
567,Nantucket,90,US,1603168724,83,41.28,-70.1,57.0,2.06
568,Tongliao,20,CN,1603168464,21,43.61,122.27,71.08,18.3
569,Savelugu,24,GH,1603168725,88,9.62,-0.83,75.97,4.21
570,Yar-Sale,10,RU,1603168670,97,66.83,70.83,18.84,3.06
571,Jalalabad,0,AF,1603168725,65,34.43,70.45,70.0,1.63
572,Bogovarovo,97,RU,1603168725,95,58.98,47.02,33.13,7.14
573,Saryozek,0,KZ,1603168726,22,44.36,77.98,66.65,4.63
574,Wichian Buri,100,TH,1603168726,80,15.66,101.11,75.09,3.87
575,Gewanē,0,ET,1603168726,27,10.17,40.65,84.34,5.7
576,Sitka,90,US,1603168417,87,57.05,-135.33,42.8,8.05
577,Avilés,100,ES,1603168726,77,43.55,-5.92,62.01,3.36
578,Nuuk,100,GL,1603168476,60,64.18,-51.72,42.8,36.91
579,Vanderhoof,36,CA,1603168727,96,54.02,-124.02,31.3,5.03
580,Makokou,100,GA,1603168727,98,0.57,12.86,68.92,1.59
581,Strelka,100,RU,1603168727,95,58.07,93.03,32.79,8.7
582,Launceston,3,AU,1603168727,55,-41.45,147.17,62.01,16.11
583,Mangochi,0,MW,1603168728,44,-14.48,35.26,80.98,3.18
584,Les Cayes,77,HT,1603168728,81,18.2,-73.75,77.36,3.42
585,Tual,100,ID,1603168383,72,-5.67,132.75,78.73,10.04
586,Bukama,3,CD,1603168728,72,-9.2,25.85,74.61,3.24
